[
  {
    "id": 1,
    "name": "京の焼肉処 弘 千本三条本店",
    "address": "京都市中京区壬生朱雀町2-10",
    "lat": 35.0060,
    "lng": 135.7515,
    "category": "焼肉",
    "image": "hiro_senbon.jpg",
    "rating": 4.31,
    "reviews": 120,
    "open_date": "2010-04-01",
    "hours": "17:00–23:00",
    "allergens": ["牛肉", "小麦"],
    "phone": "075-811-4129"
  },
  {
    "id": 2,
    "name": "京の焼肉処 弘 三条木屋町店",
    "address": "京都市中京区三条通木屋町上ル上大阪町527",
    "lat": 35.0032,
    "lng": 135.7735,
    "category": "焼肉",
    "image": "hiro_kyoyama.jpg",
    "rating": 4.35,
    "reviews": 144,
    "open_date": "2018-06-01",
    "hours": "17:00–23:00",
    "allergens": ["牛肉", "小麦", "大豆"],
    "phone": "075-213-5000"
  },
  {
    "id": 3,
    "name": "京の焼肉処 弘 京都駅前店",
    "address": "京都市下京区東洞院通七条下ル塩小路町510-1",
    "lat": 34.9860,
    "lng": 135.7593,
    "category": "焼肉",
    "image": "hiro_kyotoeki.jpg",
    "rating": 4.20,
    "reviews": 210,
    "open_date": "2015-10-06",
    "hours": "17:00–23:00",
    "allergens": ["牛肉", "小麦", "乳"],
    "phone": "075-662-1129"
  },
  {
    "id": 4,
    "name": "京の焼肉処 弘 八条口店",
    "address": "京都市南区東九条南山王町25",
    "lat": 34.9825,
    "lng": 135.7510,
    "category": "焼肉",
    "image": "hiro_hachijo.jpg",
    "rating": 4.05,
    "reviews": 95,
    "open_date": "2016-10-06",
    "hours": "17:00–23:00",
    "allergens": ["牛肉", "大豆"],
    "phone": "075-662-1129"
  },
  {
    "id": 5,
    "name": "京の焼肉処 弘 山科駅前店",
    "address": "京都市山科区安朱中小路町20-5",
    "lat": 34.9852,
    "lng": 135.8289,
    "category": "焼肉",
    "image": "hiro_yamashina.jpg",
    "rating": 4.10,
    "reviews": 40,
    "open_date": "2023-07-24",
    "hours": "11:00–23:00",
    "allergens": ["牛肉", "小麦", "乳", "大豆"],
    "phone": "075-XXX-XXXX"
  },
  {
    "id": 6,
    "name": "京の焼肉処 弘 四条木屋町店",
    "address": "京都市中京区四条通木屋町西入ル真町68-2",
    "lat": 35.0044,
    "lng": 135.7681,
    "category": "焼肉",
    "image": "hiro_shijo.jpg",
    "rating": 4.30,
    "reviews": 75,
    "open_date": "2019-05-10",
    "hours": "17:00–23:00",
    "allergens": ["牛肉", "小麦", "大豆"],
    "phone": "075-XXX-XXXX"
  },
  {
    "id": 7,
    "name": "京の焼肉処 弘 祇園山名庵",
    "address": "京都市東山区祇園町南側583-56",
    "lat": 35.0038,
    "lng": 135.7785,
    "category": "焼肉",
    "image": "hiro_gion.jpg",
    "rating": 4.49,
    "reviews": 60,
    "open_date": "2020-03-15",
    "hours": "17:00–23:00",
    "allergens": ["牛肉", "乳", "えび"],
    "phone": "075-XXX-XXXX"
  },
  {
    "id": 8,
    "name": "京の焼肉処 弘 先斗町別邸",
    "address": "京都市中京区先斗町通松原上ル西側鍋屋町117",
    "lat": 35.0019,
    "lng": 135.7689,
    "category": "焼肉",
    "image": "hiro_pontocho.jpg",
    "rating": 4.25,
    "reviews": 50,
    "open_date": "2021-11-10",
    "hours": "17:00–23:00",
    "allergens": ["牛肉", "小麦", "大豆"],
    "phone": "075-XXX-XXXX"
  },
  {
    "id": 9,
    "name": "京の焼肉処 弘 河原町店",
    "address": "京都市中京区河原町通四条上ル米屋町390",
    "lat": 35.0020,
    "lng": 135.7670,
    "category": "焼肉",
    "image": "hiro_kawaramachi.jpg",
    "rating": 4.36,
    "reviews": 65,
    "open_date": "2022-06-20",
    "hours": "17:00–23:00",
    "allergens": ["牛肉", "小麦", "乳"],
    "phone": "075-XXX-XXXX"
  },
  {
    "id": 10,
    "name": "京の焼肉処 弘 離宮",
    "address": "京都市左京区岡崎円勝寺町124",
    "lat": 35.0156,
    "lng": 135.7804,
    "category": "焼肉",
    "image": "hiro_rikyu.jpg",
    "rating": 4.20,
    "reviews": 30,
    "open_date": "2022-03-05",
    "hours": "17:00–23:00",
    "allergens": ["牛肉", "大豆"],
    "phone": "075-XXX-XXXX"
  },
  {
    "id": 11,
    "name": "京の焼肉処 弘 洛北店",
    "address": "京都市左京区一乗寺宮ノ東町35-3",
    "lat": 35.0300,
    "lng": 135.7880,
    "category": "焼肉",
    "image": "hiro_rakuhoku.jpg",
    "rating": 4.15,
    "reviews": 25,
    "open_date": "2021-02-10",
    "hours": "17:00–23:00",
    "allergens": ["牛肉", "乳"],
    "phone": "075-XXX-XXXX"
  },
  {
    "id": 12,
    "name": "京の焼肉処 弘 西院店",
    "address": "京都市中京区西ノ京職司町67",
    "lat": 35.0142,
    "lng": 135.7302,
    "category": "焼肉",
    "image": "hiro_saiin.jpg",
    "rating": 4.05,
    "reviews": 20,
    "open_date": "2020-08-15",
    "hours": "17:00–23:00",
    "allergens": ["牛肉", "小麦"],
    "phone": "075-XXX-XXXX"
  },
  {
    "id": 13,
    "name": "京の焼肉処 弘 桂川店",
    "address": "京都市南区久世高田町376-1",
    "lat": 34.9688,
    "lng": 135.7350,
    "category": "焼肉",
    "image": "hiro_katsuragawa.jpg",
    "rating": 3.98,
    "reviews": 15,
    "open_date": "2019-12-05",
    "hours": "17:00–23:00",
    "allergens": ["牛肉", "大豆"],
    "phone": "075-XXX-XXXX"
  },
  {
    "id": 14,
    "name": "京の焼肉処 弘 北山店",
    "address": "京都市北区上賀茂岩ヶ垣内町62",
    "lat": 35.1110,
    "lng": 135.7780,
    "category": "焼肉",
    "image": "hiro_kitayama.jpg",
    "rating": 4.00,
    "reviews": 18,
    "open_date": "2018-09-20",
    "hours": "17:00–23:00",
    "allergens": ["牛肉", "小麦"],
    "phone": "075-XXX-XXXX"
  }
]

